{
    "results": [
        {
            "address_components": [
                {
                    "long_name": "101",
                    "short_name": "101",
                    "types": [
                        "street_number"
                    ]
                },
                {
                    "long_name": "Steuben Street",
                    "short_name": "Steuben St",
                    "types": [
                        "route"
                    ]
                },
                {
                    "long_name": "Clinton Hill",
                    "short_name": "Clinton Hill",
                    "types": [
                        "neighborhood",
                        "political"
                    ]
                },
                {
                    "long_name": "Brooklyn",
                    "short_name": "Brooklyn",
                    "types": [
                        "sublocality_level_1",
                        "sublocality",
                        "political"
                    ]
                },
                {
                    "long_name": "Kings County",
                    "short_name": "Kings County",
                    "types": [
                        "administrative_area_level_2",
                        "political"
                    ]
                },
                {
                    "long_name": "New York",
                    "short_name": "NY",
                    "types": [
                        "administrative_area_level_1",
                        "political"
                    ]
                },
                {
                    "long_name": "United States",
                    "short_name": "US",
                    "types": [
                        "country",
                        "political"
                    ]
                },
                {
                    "long_name": "11205",
                    "short_name": "11205",
                    "types": [
                        "postal_code"
                    ]
                },
                {
                    "long_name": "2608",
                    "short_name": "2608",
                    "types": [
                        "postal_code_suffix"
                    ]
                }
            ],
            "formatted_address": "101 Steuben St, Brooklyn, NY 11205, USA",
            "geometry": {
                "bounds": {
                    "northeast": {
                        "lat": 40.694458,
                        "lng": -73.9628256
                    },
                    "southwest": {
                        "lat": 40.6942946,
                        "lng": -73.9631576
                    }
                },
                "location": {
                    "lat": 40.69437629999999,
                    "lng": -73.9629916
                },
                "location_type": "ROOFTOP",
                "viewport": {
                    "northeast": {
                        "lat": 40.69572528029151,
                        "lng": -73.96164261970851
                    },
                    "southwest": {
                        "lat": 40.69302731970851,
                        "lng": -73.96434058029152
                    }
                }
            },
            "place_id": "ChIJ6TtS8sBbwokRlBauKRD0BBk",
            "types": [
                "premise"
            ]
        },
        {
            "address_components": [
                {
                    "long_name": "106",
                    "short_name": "106",
                    "types": [
                        "street_number"
                    ]
                },
                {
                    "long_name": "Emerson Place",
                    "short_name": "Emerson Pl",
                    "types": [
                        "route"
                    ]
                },
                {
                    "long_name": "Clinton Hill",
                    "short_name": "Clinton Hill",
                    "types": [
                        "neighborhood",
                        "political"
                    ]
                },
                {
                    "long_name": "Brooklyn",
                    "short_name": "Brooklyn",
                    "types": [
                        "sublocality_level_1",
                        "sublocality",
                        "political"
                    ]
                },
                {
                    "long_name": "Kings County",
                    "short_name": "Kings County",
                    "types": [
                        "administrative_area_level_2",
                        "political"
                    ]
                },
                {
                    "long_name": "New York",
                    "short_name": "NY",
                    "types": [
                        "administrative_area_level_1",
                        "political"
                    ]
                },
                {
                    "long_name": "United States",
                    "short_name": "US",
                    "types": [
                        "country",
                        "political"
                    ]
                },
                {
                    "long_name": "11205",
                    "short_name": "11205",
                    "types": [
                        "postal_code"
                    ]
                },
                {
                    "long_name": "2604",
                    "short_name": "2604",
                    "types": [
                        "postal_code_suffix"
                    ]
                }
            ],
            "formatted_address": "106 Emerson Pl, Brooklyn, NY 11205, USA",
            "geometry": {
                "location": {
                    "lat": 40.694379,
                    "lng": -73.962589
                },
                "location_type": "ROOFTOP",
                "viewport": {
                    "northeast": {
                        "lat": 40.6957279802915,
                        "lng": -73.9612400197085
                    },
                    "southwest": {
                        "lat": 40.6930300197085,
                        "lng": -73.9639379802915
                    }
                }
            },
            "place_id": "ChIJhbnO9cBbwokRyqW7IawWHYQ",
            "types": [
                "street_address"
            ]
        },
        {
            "address_components": [
                {
                    "long_name": "Clinton Hill",
                    "short_name": "Clinton Hill",
                    "types": [
                        "neighborhood",
                        "political"
                    ]
                },
                {
                    "long_name": "Brooklyn",
                    "short_name": "Brooklyn",
                    "types": [
                        "sublocality_level_1",
                        "sublocality",
                        "political"
                    ]
                },
                {
                    "long_name": "New York",
                    "short_name": "New York",
                    "types": [
                        "locality",
                        "political"
                    ]
                },
                {
                    "long_name": "Kings County",
                    "short_name": "Kings County",
                    "types": [
                        "administrative_area_level_2",
                        "political"
                    ]
                },
                {
                    "long_name": "New York",
                    "short_name": "NY",
                    "types": [
                        "administrative_area_level_1",
                        "political"
                    ]
                },
                {
                    "long_name": "United States",
                    "short_name": "US",
                    "types": [
                        "country",
                        "political"
                    ]
                }
            ],
            "formatted_address": "Clinton Hill, Brooklyn, NY, USA",
            "geometry": {
                "bounds": {
                    "northeast": {
                        "lat": 40.6979329,
                        "lng": -73.95785099999999
                    },
                    "southwest": {
                        "lat": 40.679558,
                        "lng": -73.971446
                    }
                },
                "location": {
                    "lat": 40.68936650000001,
                    "lng": -73.9639021
                },
                "location_type": "APPROXIMATE",
                "viewport": {
                    "northeast": {
                        "lat": 40.6979329,
                        "lng": -73.95785099999999
                    },
                    "southwest": {
                        "lat": 40.679558,
                        "lng": -73.971446
                    }
                }
            },
            "place_id": "ChIJ6feIr75bwokRQtg4ULsdbt0",
            "types": [
                "neighborhood",
                "political"
            ]
        },
        {
            "address_components": [
                {
                    "long_name": "Brooklyn",
                    "short_name": "Brooklyn",
                    "types": [
                        "sublocality_level_1",
                        "sublocality",
                        "political"
                    ]
                },
                {
                    "long_name": "New York",
                    "short_name": "New York",
                    "types": [
                        "locality",
                        "political"
                    ]
                },
                {
                    "long_name": "Kings County",
                    "short_name": "Kings County",
                    "types": [
                        "administrative_area_level_2",
                        "political"
                    ]
                },
                {
                    "long_name": "New York",
                    "short_name": "NY",
                    "types": [
                        "administrative_area_level_1",
                        "political"
                    ]
                },
                {
                    "long_name": "United States",
                    "short_name": "US",
                    "types": [
                        "country",
                        "political"
                    ]
                }
            ],
            "formatted_address": "Brooklyn, NY, USA",
            "geometry": {
                "bounds": {
                    "northeast": {
                        "lat": 40.739446,
                        "lng": -73.8333651
                    },
                    "southwest": {
                        "lat": 40.551042,
                        "lng": -74.05663
                    }
                },
                "location": {
                    "lat": 40.6781784,
                    "lng": -73.9441579
                },
                "location_type": "APPROXIMATE",
                "viewport": {
                    "northeast": {
                        "lat": 40.739446,
                        "lng": -73.8333651
                    },
                    "southwest": {
                        "lat": 40.551042,
                        "lng": -74.05663
                    }
                }
            },
            "place_id": "ChIJCSF8lBZEwokRhngABHRcdoI",
            "types": [
                "sublocality_level_1",
                "sublocality",
                "political"
            ]
        },
        {
            "address_components": [
                {
                    "long_name": "New York",
                    "short_name": "New York",
                    "types": [
                        "locality",
                        "political"
                    ]
                },
                {
                    "long_name": "New York",
                    "short_name": "NY",
                    "types": [
                        "administrative_area_level_1",
                        "political"
                    ]
                },
                {
                    "long_name": "United States",
                    "short_name": "US",
                    "types": [
                        "country",
                        "political"
                    ]
                }
            ],
            "formatted_address": "New York, NY, USA",
            "geometry": {
                "bounds": {
                    "northeast": {
                        "lat": 40.91525559999999,
                        "lng": -73.70027209999999
                    },
                    "southwest": {
                        "lat": 40.4960439,
                        "lng": -74.2557349
                    }
                },
                "location": {
                    "lat": 40.7127837,
                    "lng": -74.0059413
                },
                "location_type": "APPROXIMATE",
                "viewport": {
                    "northeast": {
                        "lat": 40.91525559999999,
                        "lng": -73.70027209999999
                    },
                    "southwest": {
                        "lat": 40.4960439,
                        "lng": -74.2557349
                    }
                }
            },
            "place_id": "ChIJOwg_06VPwokRYv534QaPC8g",
            "types": [
                "locality",
                "political"
            ]
        },
        {
            "address_components": [
                {
                    "long_name": "11205",
                    "short_name": "11205",
                    "types": [
                        "postal_code"
                    ]
                },
                {
                    "long_name": "Brooklyn",
                    "short_name": "Brooklyn",
                    "types": [
                        "sublocality_level_1",
                        "sublocality",
                        "political"
                    ]
                },
                {
                    "long_name": "Kings County",
                    "short_name": "Kings County",
                    "types": [
                        "administrative_area_level_2",
                        "political"
                    ]
                },
                {
                    "long_name": "New York",
                    "short_name": "NY",
                    "types": [
                        "administrative_area_level_1",
                        "political"
                    ]
                },
                {
                    "long_name": "United States",
                    "short_name": "US",
                    "types": [
                        "country",
                        "political"
                    ]
                }
            ],
            "formatted_address": "Brooklyn, NY 11205, USA",
            "geometry": {
                "bounds": {
                    "northeast": {
                        "lat": 40.7066249,
                        "lng": -73.948331
                    },
                    "southwest": {
                        "lat": 40.68741490000001,
                        "lng": -73.980632
                    }
                },
                "location": {
                    "lat": 40.6945036,
                    "lng": -73.9565551
                },
                "location_type": "APPROXIMATE",
                "viewport": {
                    "northeast": {
                        "lat": 40.7066249,
                        "lng": -73.948331
                    },
                    "southwest": {
                        "lat": 40.68741490000001,
                        "lng": -73.980632
                    }
                }
            },
            "place_id": "ChIJLywE8sZbwokRiLapmmo79YU",
            "types": [
                "postal_code"
            ]
        },
        {
            "address_components": [
                {
                    "long_name": "Kings County",
                    "short_name": "Kings County",
                    "types": [
                        "administrative_area_level_2",
                        "political"
                    ]
                },
                {
                    "long_name": "New York",
                    "short_name": "NY",
                    "types": [
                        "administrative_area_level_1",
                        "political"
                    ]
                },
                {
                    "long_name": "United States",
                    "short_name": "US",
                    "types": [
                        "country",
                        "political"
                    ]
                }
            ],
            "formatted_address": "Kings County, NY, USA",
            "geometry": {
                "bounds": {
                    "northeast": {
                        "lat": 40.7391407,
                        "lng": -73.8333651
                    },
                    "southwest": {
                        "lat": 40.5702197,
                        "lng": -74.0419592
                    }
                },
                "location": {
                    "lat": 40.6528762,
                    "lng": -73.95949399999999
                },
                "location_type": "APPROXIMATE",
                "viewport": {
                    "northeast": {
                        "lat": 40.7391407,
                        "lng": -73.8333651
                    },
                    "southwest": {
                        "lat": 40.5702197,
                        "lng": -74.0419592
                    }
                }
            },
            "place_id": "ChIJOwE7_GTtwokRs75rhW4_I6M",
            "types": [
                "administrative_area_level_2",
                "political"
            ]
        },
        {
            "address_components": [
                {
                    "long_name": "New York",
                    "short_name": "NY",
                    "types": [
                        "administrative_area_level_1",
                        "political"
                    ]
                },
                {
                    "long_name": "United States",
                    "short_name": "US",
                    "types": [
                        "country",
                        "political"
                    ]
                }
            ],
            "formatted_address": "New York, USA",
            "geometry": {
                "bounds": {
                    "northeast": {
                        "lat": 45.015865,
                        "lng": -71.85620639999999
                    },
                    "southwest": {
                        "lat": 40.496091,
                        "lng": -79.76214379999999
                    }
                },
                "location": {
                    "lat": 43.2994285,
                    "lng": -74.21793260000001
                },
                "location_type": "APPROXIMATE",
                "viewport": {
                    "northeast": {
                        "lat": 45.015859,
                        "lng": -71.85620639999999
                    },
                    "southwest": {
                        "lat": 40.496091,
                        "lng": -79.76214379999999
                    }
                }
            },
            "place_id": "ChIJqaUj8fBLzEwRZ5UY3sHGz90",
            "types": [
                "administrative_area_level_1",
                "political"
            ]
        },
        {
            "address_components": [
                {
                    "long_name": "United States",
                    "short_name": "US",
                    "types": [
                        "country",
                        "political"
                    ]
                }
            ],
            "formatted_address": "United States",
            "geometry": {
                "bounds": {
                    "northeast": {
                        "lat": 71.3867745,
                        "lng": -66.9502861
                    },
                    "southwest": {
                        "lat": 18.9106768,
                        "lng": 172.4458955
                    }
                },
                "location": {
                    "lat": 37.09024,
                    "lng": -95.712891
                },
                "location_type": "APPROXIMATE",
                "viewport": {
                    "northeast": {
                        "lat": 49.38,
                        "lng": -66.94
                    },
                    "southwest": {
                        "lat": 25.82,
                        "lng": -124.39
                    }
                }
            },
            "place_id": "ChIJCzYy5IS16lQRQrfeQ5K5Oxw",
            "types": [
                "country",
                "political"
            ]
        }
    ],
    "status": "OK"
}